site_id,anime_id,anime_title,scene_id,episode,lat,lon,location_name,city,prefecture,country,place_type,urban_context,anime_frame_path,streetview_image_path,source_url,source_type,coordinate_confidence,real_location_match_type,is_publicly_accessible,private_or_sensitive_location,notes
S_27364_0000,27364,冰菓,ozj8t9728,1,36.1566,137.2581,上学道,高山市,岐阜県,Japan,other,,data/raw/anime_frames/27364/ozj8t9728.jpg,,https://anitabi.cn/,anitabi_fan_site,high,exact,1,0,
S_27364_0001,27364,冰菓,7ek5c0v9,1,36.1563,137.2579,神山高校,高山市,岐阜県,Japan,school,,data/raw/anime_frames/27364/7ek5c0v9.jpg,,https://www.google.com/maps/d/viewer?mid=1-xhK9xXBighgJMVK-M8OxkKh5i4&ll=36.156328%2C137.257948&z=17,anitabi_fan_site,high,exact,1,1,
S_27364_0002,27364,冰菓,7ek5c0rz,1,36.1454,137.2568,OP1 场景（本町4商店街駐車場）,高山市,岐阜県,Japan,shopping_street,,data/raw/anime_frames/27364/7ek5c0rz.jpg,,https://www.google.com/maps/d/viewer?mid=1-xhK9xXBighgJMVK-M8OxkKh5i4&ll=36.145469%2C137.256835&z=17,anitabi_fan_site,high,exact,1,0,
S_27364_0003,27364,冰菓,rno7fzcnt,1,36.1411,137.2582,猫鱼雕像,高山市,岐阜県,Japan,other,,data/raw/anime_frames/27364/rno7fzcnt.jpg,,https://anitabi.cn/,anitabi_fan_site,high,exact,1,0,
S_27364_0004,27364,冰菓,7ek5c0tg,1,36.1429,137.2575,鍛冶橋交差点,高山市,岐阜県,Japan,bridge,,data/raw/anime_frames/27364/7ek5c0tg.jpg,,https://www.google.com/maps/d/viewer?mid=1-xhK9xXBighgJMVK-M8OxkKh5i4&ll=36.142978%2C137.257551&z=17,anitabi_fan_site,high,exact,1,0,
S_27364_0005,27364,冰菓,7emmn40i,2,36.1379,137.256,神山神社石狮,高山市,岐阜県,Japan,shrine,,data/raw/anime_frames/27364/7emmn40i.jpg,,https://anitabi.cn/,anitabi_fan_site,high,exact,1,0,
S_27364_0006,27364,冰菓,7ek5c04k,2,36.1425,137.2578,猫鱼,高山市,岐阜県,Japan,other,,data/raw/anime_frames/27364/7ek5c04k.jpg,,https://www.google.com/maps/d/viewer?mid=1-xhK9xXBighgJMVK-M8OxkKh5i4&ll=36.142504%2C137.257803&z=17,anitabi_fan_site,high,exact,1,0,
S_27364_0007,27364,冰菓,7ek5c0da,4,36.1414,137.2652,4 话行车路线,高山市,岐阜県,Japan,other,,data/raw/anime_frames/27364/7ek5c0da.jpg,,https://www.google.com/maps/d/viewer?mid=1-xhK9xXBighgJMVK-M8OxkKh5i4&ll=36.14147%2C137.265206&z=17,anitabi_fan_site,high,exact,1,0,
S_27364_0008,27364,冰菓,59orvui2a,4,36.1487,137.2566,不动桥,高山市,岐阜県,Japan,other,,data/raw/anime_frames/27364/59orvui2a.jpg,,https://anitabi.cn/,anitabi_fan_site,high,exact,1,0,
S_27364_0009,27364,冰菓,837zd8il8,4,35.7134,139.7622,安田講堂,高山市,岐阜県,Japan,temple,,data/raw/anime_frames/27364/837zd8il8.jpg,,https://anitabi.cn/,anitabi_fan_site,high,exact,1,0,
S_27364_0010,27364,冰菓,7ek5c062,5,36.1459,137.2567,5 话场景（寄信处）,高山市,岐阜県,Japan,other,,data/raw/anime_frames/27364/7ek5c062.jpg,,https://www.google.com/maps/d/viewer?mid=1-xhK9xXBighgJMVK-M8OxkKh5i4&ll=36.145941%2C137.256728&z=17,anitabi_fan_site,high,exact,1,0,
S_27364_0011,27364,冰菓,ozk1ruc0l,OP1,36.1456,137.2575,OP1（水中阶梯？）,高山市,岐阜県,Japan,other,,data/raw/anime_frames/27364/ozk1ruc0l.jpg,,https://anitabi.cn/,anitabi_fan_site,high,exact,1,0,
S_27364_0012,27364,冰菓,7ek5c0v5,6,36.1336,137.2592,神社参道,高山市,岐阜県,Japan,shrine,,data/raw/anime_frames/27364/7ek5c0v5.jpg,,https://www.google.com/maps/d/viewer?mid=1-xhK9xXBighgJMVK-M8OxkKh5i4&ll=36.133666%2C137.259206&z=17,anitabi_fan_site,high,exact,1,0,
S_27364_0013,27364,冰菓,7ek5c0lp,7,36.1909,137.552,アルプス街道平湯,高山市,岐阜県,Japan,other,,data/raw/anime_frames/27364/7ek5c0lp.jpg,,https://www.google.com/maps/d/viewer?mid=1-xhK9xXBighgJMVK-M8OxkKh5i4&ll=36.190923%2C137.55202&z=17,anitabi_fan_site,high,exact,1,0,
S_27364_0014,27364,冰菓,rnokbyeu4,7,36.1909,137.5516,平湯バスターミナル足湯附近,高山市,岐阜県,Japan,other,,data/raw/anime_frames/27364/rnokbyeu4.jpg,,https://anitabi.cn/,anitabi_fan_site,high,exact,1,0,
S_27364_0015,27364,冰菓,7ek5c066,7,36.1924,137.5544,青山荘（理论位置）,高山市,岐阜県,Japan,hill_viewpoint,,data/raw/anime_frames/27364/7ek5c066.jpg,,https://www.google.com/maps/d/viewer?mid=1-xhK9xXBighgJMVK-M8OxkKh5i4&ll=36.19249%2C137.554455&z=17,anitabi_fan_site,high,exact,1,0,
S_27364_0016,27364,冰菓,7ek5c071,7,36.192,137.5526,青山荘（馆内）,高山市,岐阜県,Japan,hill_viewpoint,,data/raw/anime_frames/27364/7ek5c071.jpg,,https://www.google.com/maps/d/viewer?mid=1-xhK9xXBighgJMVK-M8OxkKh5i4&ll=36.192053%2C137.55261&z=17,anitabi_fan_site,high,exact,1,0,
S_27364_0017,27364,冰菓,7ek5c0ke,7,36.1925,137.5541,去温泉的路上,高山市,岐阜県,Japan,other,,data/raw/anime_frames/27364/7ek5c0ke.jpg,,https://www.google.com/maps/d/viewer?mid=1-xhK9xXBighgJMVK-M8OxkKh5i4&ll=36.192514%2C137.554101&z=17,anitabi_fan_site,high,exact,1,0,
S_27364_0018,27364,冰菓,7ek5c0jh,7,36.1921,137.554,平湯民俗館和平湯神社岔路口,高山市,岐阜県,Japan,shrine,,data/raw/anime_frames/27364/7ek5c0jh.jpg,,https://www.google.com/maps/d/viewer?mid=1-xhK9xXBighgJMVK-M8OxkKh5i4&ll=36.192133%2C137.554002&z=17,anitabi_fan_site,high,exact,1,0,
S_27364_0019,27364,冰菓,rnohuhy2g,7,36.1918,137.5543,平湯の湯,高山市,岐阜県,Japan,other,,data/raw/anime_frames/27364/rnohuhy2g.jpg,,https://anitabi.cn/,anitabi_fan_site,high,exact,1,0,
S_27364_0020,27364,冰菓,7ek5c0su,8,36.3522,137.3065,古丘町楢窪地区(?),高山市,岐阜県,Japan,hill_viewpoint,,data/raw/anime_frames/27364/7ek5c0su.jpg,,https://www.google.com/maps/d/viewer?mid=1-xhK9xXBighgJMVK-M8OxkKh5i4&ll=36.352255%2C137.306598&z=17,anitabi_fan_site,high,exact,1,0,
S_27364_0021,27364,冰菓,7ek5c0oh,8,36.1537,137.2572,恋合病院,高山市,岐阜県,Japan,other,,data/raw/anime_frames/27364/7ek5c0oh.jpg,,https://www.google.com/maps/d/viewer?mid=1-xhK9xXBighgJMVK-M8OxkKh5i4&ll=36.153777%2C137.257234&z=17,anitabi_fan_site,high,exact,1,0,
S_27364_0022,27364,冰菓,7ek5c04j,8,36.1382,137.256,8 话场景,高山市,岐阜県,Japan,other,,data/raw/anime_frames/27364/7ek5c04j.jpg,,https://www.google.com/maps/d/viewer?mid=1-xhK9xXBighgJMVK-M8OxkKh5i4&ll=36.13826%2C137.256036&z=17,anitabi_fan_site,high,exact,1,0,
S_27364_0023,27364,冰菓,7ek5c0p2,9,36.1457,137.2567,9 话场景（八百屋）,高山市,岐阜県,Japan,other,,data/raw/anime_frames/27364/7ek5c0p2.jpg,,https://www.google.com/maps/d/viewer?mid=1-xhK9xXBighgJMVK-M8OxkKh5i4&ll=36.14577%2C137.256792&z=17,anitabi_fan_site,high,exact,1,0,
S_27364_0024,27364,冰菓,7ek5c0ru,10,36.1416,137.2596,喫茶一二三,高山市,岐阜県,Japan,other,,data/raw/anime_frames/27364/7ek5c0ru.jpg,,https://www.google.com/maps/d/viewer?mid=1-xhK9xXBighgJMVK-M8OxkKh5i4&ll=36.141637%2C137.259627&z=17,anitabi_fan_site,high,exact,1,0,
S_27364_0025,27364,冰菓,7ek5c0tb,10,36.1422,137.2578,本町2丁目,高山市,岐阜県,Japan,other,,data/raw/anime_frames/27364/7ek5c0tb.jpg,,https://www.google.com/maps/d/viewer?mid=1-xhK9xXBighgJMVK-M8OxkKh5i4&ll=36.142246%2C137.257811&z=17,anitabi_fan_site,high,exact,1,0,
S_27364_0026,27364,冰菓,7ek5c0ff,11,36.145,137.2579,宮川朝市,高山市,岐阜県,Japan,river,,data/raw/anime_frames/27364/7ek5c0ff.jpg,,https://www.google.com/maps/d/viewer?mid=1-xhK9xXBighgJMVK-M8OxkKh5i4&ll=36.14509%2C137.257902&z=17,anitabi_fan_site,high,exact,1,0,
S_27364_0027,27364,冰菓,7ek5c0vv,11,36.1456,137.2574,宮川河川敷,高山市,岐阜県,Japan,river,,data/raw/anime_frames/27364/7ek5c0vv.jpg,,https://www.google.com/maps/d/viewer?mid=1-xhK9xXBighgJMVK-M8OxkKh5i4&ll=36.145601%2C137.257415&z=17,anitabi_fan_site,high,exact,1,0,
S_27364_0028,27364,冰菓,7ek5c077,11,36.1436,137.2574,11 话场景（TOILET）,高山市,岐阜県,Japan,other,,data/raw/anime_frames/27364/7ek5c077.jpg,,https://www.google.com/maps/d/viewer?mid=1-xhK9xXBighgJMVK-M8OxkKh5i4&ll=36.143604%2C137.257468&z=17,anitabi_fan_site,high,exact,1,0,
S_27364_0029,27364,冰菓,7ek5c0iu,EP11.5,36.1578,137.2318,11.5 话场景（市民游泳池）,高山市,岐阜県,Japan,other,,data/raw/anime_frames/27364/7ek5c0iu.jpg,,https://www.google.com/maps/d/viewer?mid=1-xhK9xXBighgJMVK-M8OxkKh5i4&ll=36.157809%2C137.231882&z=17,anitabi_fan_site,high,exact,1,0,
S_10440_0030,10440,我们仍未知道那天所看见的花的名字。,a4yyy6kt,1,36.0187,139.0863,旧秩父橋,秩父市,埼玉県,Japan,bridge,,data/raw/anime_frames/10440/a4yyy6kt.jpg,,https://anitabi.cn/,anitabi_fan_site,high,exact,1,0,
S_10440_0031,10440,我们仍未知道那天所看见的花的名字。,a4yyy74a,1,35.9901,139.0901,羊山公園 見晴しの丘,秩父市,埼玉県,Japan,hill_viewpoint,,data/raw/anime_frames/10440/a4yyy74a.jpg,,https://anitabi.cn/,anitabi_fan_site,high,exact,1,0,
S_10440_0032,10440,我们仍未知道那天所看见的花的名字。,a4yyy6k9,1,36.0056,139.0841,定林寺脇,秩父市,埼玉県,Japan,temple,,data/raw/anime_frames/10440/a4yyy6k9.jpg,,https://anitabi.cn/,anitabi_fan_site,high,exact,1,0,
S_10440_0033,10440,我们仍未知道那天所看见的花的名字。,a4yyy6kq,1,36.0038,139.0849,鶴見歯科脇 十字路,秩父市,埼玉県,Japan,other,,data/raw/anime_frames/10440/a4yyy6kq.jpg,,https://anitabi.cn/,anitabi_fan_site,high,exact,1,0,
S_10440_0034,10440,我们仍未知道那天所看见的花的名字。,a4yyy6ol,1,35.9969,139.0828,秩父ふるさと館前 信号,秩父市,埼玉県,Japan,other,,data/raw/anime_frames/10440/a4yyy6ol.jpg,,https://anitabi.cn/,anitabi_fan_site,high,exact,1,0,
S_10440_0035,10440,我们仍未知道那天所看见的花的名字。,a4yyy6xj,1,35.9956,139.0839,浅野靴店,秩父市,埼玉県,Japan,other,,data/raw/anime_frames/10440/a4yyy6xj.jpg,,https://anitabi.cn/,anitabi_fan_site,high,exact,1,0,
S_10440_0036,10440,我们仍未知道那天所看见的花的名字。,a4yyy756,1,36.0006,139.085,キンカ堂跡地正面の路地,秩父市,埼玉県,Japan,temple,,data/raw/anime_frames/10440/a4yyy756.jpg,,https://anitabi.cn/,anitabi_fan_site,high,exact,1,0,
S_10440_0037,10440,我们仍未知道那天所看见的花的名字。,a4yyy7jo,1,36.0002,139.0853,公園,秩父市,埼玉県,Japan,park,,data/raw/anime_frames/10440/a4yyy7jo.jpg,,https://anitabi.cn/,anitabi_fan_site,high,exact,1,0,
S_10440_0038,10440,我们仍未知道那天所看见的花的名字。,a4yyy7z9,2,35.9853,139.0821,西武秩父線高架下,秩父市,埼玉県,Japan,other,,data/raw/anime_frames/10440/a4yyy7z9.jpg,,https://anitabi.cn/,anitabi_fan_site,high,exact,1,0,
S_10440_0039,10440,我们仍未知道那天所看见的花的名字。,a4yyy7ot,2,35.9855,139.0822,ソフトバンクショップ前,秩父市,埼玉県,Japan,other,,data/raw/anime_frames/10440/a4yyy7ot.jpg,,https://anitabi.cn/,anitabi_fan_site,high,exact,1,0,
S_10440_0040,10440,我们仍未知道那天所看见的花的名字。,a4yyy7n1,2,35.9992,139.0837,たつみや,秩父市,埼玉県,Japan,other,,data/raw/anime_frames/10440/a4yyy7n1.jpg,,https://anitabi.cn/,anitabi_fan_site,high,exact,1,0,
S_10440_0041,10440,我们仍未知道那天所看见的花的名字。,a4yyy7x3,2,35.9987,139.0834,秩父館,秩父市,埼玉県,Japan,other,,data/raw/anime_frames/10440/a4yyy7x3.jpg,,https://anitabi.cn/,anitabi_fan_site,high,exact,1,0,
S_10440_0042,10440,我们仍未知道那天所看见的花的名字。,a4yyy7sx,2,35.995,139.0762,リスの置石,秩父市,埼玉県,Japan,other,,data/raw/anime_frames/10440/a4yyy7sx.jpg,,https://anitabi.cn/,anitabi_fan_site,high,exact,1,0,
S_10440_0043,10440,我们仍未知道那天所看见的花的名字。,a4yyy7vx,2,36.0182,139.0912,蛙の置石,秩父市,埼玉県,Japan,other,,data/raw/anime_frames/10440/a4yyy7vx.jpg,,https://anitabi.cn/,anitabi_fan_site,high,exact,1,0,
S_10440_0044,10440,我们仍未知道那天所看见的花的名字。,a4yyy7e8,2,35.9973,139.0854,秩父祭り会館横,秩父市,埼玉県,Japan,other,,data/raw/anime_frames/10440/a4yyy7e8.jpg,,https://anitabi.cn/,anitabi_fan_site,high,exact,1,0,
S_10440_0045,10440,我们仍未知道那天所看见的花的名字。,a4yyya94,2,35.9951,139.0837,福島洋品店前,秩父市,埼玉県,Japan,other,,data/raw/anime_frames/10440/a4yyya94.jpg,,https://anitabi.cn/,anitabi_fan_site,high,exact,1,0,
S_10440_0046,10440,我们仍未知道那天所看见的花的名字。,a4yyy895,3,36.0047,139.0837,定林寺そば,秩父市,埼玉県,Japan,temple,,data/raw/anime_frames/10440/a4yyy895.jpg,,https://anitabi.cn/,anitabi_fan_site,high,exact,1,0,
S_10440_0047,10440,我们仍未知道那天所看见的花的名字。,a4yyy8e5,3,36.0056,139.0848,定林寺横空き地,秩父市,埼玉県,Japan,temple,,data/raw/anime_frames/10440/a4yyy8e5.jpg,,https://anitabi.cn/,anitabi_fan_site,high,exact,1,0,
S_10440_0048,10440,我们仍未知道那天所看见的花的名字。,a4yyy82u,3,36.0182,139.0842,新秩父橋奥斜面,秩父市,埼玉県,Japan,bridge,,data/raw/anime_frames/10440/a4yyy82u.jpg,,https://anitabi.cn/,anitabi_fan_site,high,exact,1,0,
S_10440_0049,10440,我们仍未知道那天所看见的花的名字。,a4yyy88z,3,36.0188,139.0859,第二秩父橋西,秩父市,埼玉県,Japan,bridge,,data/raw/anime_frames/10440/a4yyy88z.jpg,,https://anitabi.cn/,anitabi_fan_site,high,exact,1,0,
S_10440_0050,10440,我们仍未知道那天所看见的花的名字。,a4yyy8jt,3,35.9961,139.0885,ウニクス秩父の店舗パステル,秩父市,埼玉県,Japan,other,,data/raw/anime_frames/10440/a4yyy8jt.jpg,,https://anitabi.cn/,anitabi_fan_site,high,exact,1,0,
S_10440_0051,10440,我们仍未知道那天所看见的花的名字。,a4yyy85j,4,35.9966,139.0841,秩父神社前,秩父市,埼玉県,Japan,shrine,,data/raw/anime_frames/10440/a4yyy85j.jpg,,https://anitabi.cn/,anitabi_fan_site,high,exact,1,0,
S_10440_0052,10440,我们仍未知道那天所看见的花的名字。,a4yyy8a1,5,35.851,139.319,飯能駅ホーム,秩父市,埼玉県,Japan,station,,data/raw/anime_frames/10440/a4yyy8a1.jpg,,https://anitabi.cn/,anitabi_fan_site,high,exact,1,0,
S_10440_0053,10440,我们仍未知道那天所看见的花的名字。,a4yyy8bb,5,35.9945,139.0885,モンマートいのうえ,秩父市,埼玉県,Japan,other,,data/raw/anime_frames/10440/a4yyy8bb.jpg,,https://anitabi.cn/,anitabi_fan_site,high,exact,1,0,
S_10440_0054,10440,我们仍未知道那天所看见的花的名字。,a4yyy9dg,6,36.0064,139.0853,定林寺近くの公園,秩父市,埼玉県,Japan,temple,,data/raw/anime_frames/10440/a4yyy9dg.jpg,,https://anitabi.cn/,anitabi_fan_site,high,exact,1,0,
S_10440_0055,10440,我们仍未知道那天所看见的花的名字。,a4yyy9kc,6,36.0048,139.083,峰寿司前,秩父市,埼玉県,Japan,other,,data/raw/anime_frames/10440/a4yyy9kc.jpg,,https://anitabi.cn/,anitabi_fan_site,high,exact,1,0,
S_10440_0056,10440,我们仍未知道那天所看见的花的名字。,a4yyy985,7,35.9956,139.0765,秩父第一病院前,秩父市,埼玉県,Japan,other,,data/raw/anime_frames/10440/a4yyy985.jpg,,https://anitabi.cn/,anitabi_fan_site,high,exact,1,0,
S_10440_0057,10440,我们仍未知道那天所看见的花的名字。,a4yyy8yq,7,36.0045,139.0852,郵政庁舎裏,秩父市,埼玉県,Japan,other,,data/raw/anime_frames/10440/a4yyy8yq.jpg,,https://anitabi.cn/,anitabi_fan_site,high,exact,1,0,
S_10440_0058,10440,我们仍未知道那天所看见的花的名字。,a4yyy8yj,7,36.0056,139.0842,定林寺境内,秩父市,埼玉県,Japan,temple,,data/raw/anime_frames/10440/a4yyy8yj.jpg,,https://anitabi.cn/,anitabi_fan_site,high,exact,1,0,
S_10440_0059,10440,我们仍未知道那天所看见的花的名字。,a4yyy9sp,8,36.0073,139.1004,秩父聖地公園,秩父市,埼玉県,Japan,park,,data/raw/anime_frames/10440/a4yyy9sp.jpg,,https://anitabi.cn/,anitabi_fan_site,high,exact,1,0,
S_207195_0060,207195,摇曳露营△,42wiunn,11,35.3363,138.584,まかいの牧場,山梨县,山梨県,Japan,other,,data/raw/anime_frames/207195/42wiunn.jpg,,https://anitabi.cn/,anitabi_fan_site,high,exact,1,0,
S_207195_0061,207195,摇曳露营△,3i8lxfq,11,35.3416,138.5847,富士山YMCA駐車場 附近,山梨县,山梨県,Japan,hill_viewpoint,,data/raw/anime_frames/207195/3i8lxfq.jpg,,https://anitabi.cn/,anitabi_fan_site,high,exact,1,0,
S_207195_0062,207195,摇曳露营△,360f8480,3,35.3408,138.5883,国道139号線（YMCA入口前）,山梨县,山梨県,Japan,other,,data/raw/anime_frames/207195/360f8480.jpg,,https://www.google.com/maps/d/viewer?mid=1Hlzintz-iOT_6yI-xxGkQBWD-8FftQ-5&ll=35.340859%2C138.588305&z=17,anitabi_fan_site,high,exact,1,0,
S_207195_0063,207195,摇曳露营△,fd99d84f,7,35.1453,138.5209,新東名高速道路新清水IC,山梨县,山梨県,Japan,other,,data/raw/anime_frames/207195/fd99d84f.jpg,,https://www.google.com/maps/d/viewer?mid=1Hlzintz-iOT_6yI-xxGkQBWD-8FftQ-5&ll=35.145389%2C138.520993&z=17,anitabi_fan_site,high,exact,1,0,
S_207195_0064,207195,摇曳露营△,fd047b1f,4,35.9427,138.2496,県道17号線,山梨县,山梨県,Japan,other,,data/raw/anime_frames/207195/fd047b1f.jpg,,https://www.google.com/maps/d/viewer?mid=1Hlzintz-iOT_6yI-xxGkQBWD-8FftQ-5&ll=35.9427%2C138.249631&z=17,anitabi_fan_site,high,exact,1,0,
S_207195_0065,207195,摇曳露营△,2751483a,4,35.943,138.249,八ヶ岳エコーライン,山梨县,山梨県,Japan,other,,data/raw/anime_frames/207195/2751483a.jpg,,https://www.google.com/maps/d/viewer?mid=1Hlzintz-iOT_6yI-xxGkQBWD-8FftQ-5&ll=35.943043%2C138.249034&z=17,anitabi_fan_site,high,exact,1,0,
S_207195_0066,207195,摇曳露营△,3i7vea6,9,35.977,138.1298,杖突峠パノラマ展望台,山梨县,山梨県,Japan,hill_viewpoint,,data/raw/anime_frames/207195/3i7vea6.jpg,,https://anitabi.cn/,anitabi_fan_site,high,exact,1,0,
S_207195_0067,207195,摇曳露营△,17923512,9,35.879,138.0952,国道152号線 道標,山梨县,山梨県,Japan,other,,data/raw/anime_frames/207195/17923512.jpg,,https://www.google.com/maps/d/viewer?mid=1Hlzintz-iOT_6yI-xxGkQBWD-8FftQ-5&ll=35.879088%2C138.095223&z=17,anitabi_fan_site,high,exact,1,0,
S_207195_0068,207195,摇曳露营△,e908bed2,9,35.5778,138.465,県道42号線,山梨县,山梨県,Japan,other,,data/raw/anime_frames/207195/e908bed2.jpg,,https://www.google.com/maps/d/viewer?mid=1Hlzintz-iOT_6yI-xxGkQBWD-8FftQ-5&ll=35.5778%2C138.465025&z=17,anitabi_fan_site,high,exact,1,0,
S_207195_0069,207195,摇曳露营△,71f4bfca,9,35.661,138.4404,ローソン南アルプス街道店,山梨县,山梨県,Japan,other,,data/raw/anime_frames/207195/71f4bfca.jpg,,https://www.google.com/maps/d/viewer?mid=1Hlzintz-iOT_6yI-xxGkQBWD-8FftQ-5&ll=35.661093%2C138.440453&z=17,anitabi_fan_site,high,exact,1,0,
S_207195_0070,207195,摇曳露营△,ddefcfef,9,35.6575,138.4276,塩沢入口交差点,山梨县,山梨県,Japan,intersection,,data/raw/anime_frames/207195/ddefcfef.jpg,,https://www.google.com/maps/d/viewer?mid=1Hlzintz-iOT_6yI-xxGkQBWD-8FftQ-5&ll=35.657504%2C138.427683&z=17,anitabi_fan_site,high,exact,1,0,
S_207195_0071,207195,摇曳露营△,c5fd6934,9,35.638,138.385,県道20号線,山梨县,山梨県,Japan,other,,data/raw/anime_frames/207195/c5fd6934.jpg,,https://www.google.com/maps/d/viewer?mid=1Hlzintz-iOT_6yI-xxGkQBWD-8FftQ-5&ll=35.638049%2C138.385026&z=17,anitabi_fan_site,high,exact,1,0,
S_207195_0072,207195,摇曳露营△,e672da9c,9,35.6355,138.371,瀬戸大橋,山梨县,山梨県,Japan,bridge,,data/raw/anime_frames/207195/e672da9c.jpg,,https://www.google.com/maps/d/viewer?mid=1Hlzintz-iOT_6yI-xxGkQBWD-8FftQ-5&ll=35.635586%2C138.371068&z=17,anitabi_fan_site,high,exact,1,0,
S_207195_0073,207195,摇曳露营△,2fbb0ac5,9,35.6354,138.3696,岩園館,山梨县,山梨県,Japan,other,,data/raw/anime_frames/207195/2fbb0ac5.jpg,,https://www.google.com/maps/d/viewer?mid=1Hlzintz-iOT_6yI-xxGkQBWD-8FftQ-5&ll=35.635482%2C138.369672&z=17,anitabi_fan_site,high,exact,1,0,
S_207195_0074,207195,摇曳露营△,2e7af2ab,9,35.6355,138.3455,夜叉神の茶屋,山梨县,山梨県,Japan,other,,data/raw/anime_frames/207195/2e7af2ab.jpg,,https://www.google.com/maps/d/viewer?mid=1Hlzintz-iOT_6yI-xxGkQBWD-8FftQ-5&ll=35.635548%2C138.345526&z=17,anitabi_fan_site,high,exact,1,0,
S_207195_0075,207195,摇曳露营△,3dpxwps,9,35.6356,138.3454,夜叉神峠登山口,山梨县,山梨県,Japan,hill_viewpoint,,data/raw/anime_frames/207195/3dpxwps.jpg,,https://anitabi.cn/,anitabi_fan_site,high,exact,1,0,
S_207195_0076,207195,摇曳露营△,3ecef2ee,10,35.7388,137.9124,県道75号線(女体入口駅付近),山梨县,山梨県,Japan,station,,data/raw/anime_frames/207195/3ecef2ee.jpg,,https://www.google.com/maps/d/viewer?mid=1Hlzintz-iOT_6yI-xxGkQBWD-8FftQ-5&ll=35.738861%2C137.912404&z=17,anitabi_fan_site,high,exact,1,0,
S_207195_0077,207195,摇曳露营△,62e3072d,10,35.7414,137.9349,コンビニ,山梨县,山梨県,Japan,other,,data/raw/anime_frames/207195/62e3072d.jpg,,https://www.google.com/maps/d/viewer?mid=1Hlzintz-iOT_6yI-xxGkQBWD-8FftQ-5&ll=35.741437%2C137.934944&z=17,anitabi_fan_site,high,exact,1,0,
S_207195_0078,207195,摇曳露营△,3dqgv72,9,35.7351,137.896,早太郎おみくじ,山梨县,山梨県,Japan,other,,data/raw/anime_frames/207195/3dqgv72.jpg,,https://anitabi.cn/,anitabi_fan_site,high,exact,1,0,
S_207195_0079,207195,摇曳露营△,3dqaphf,9,35.7348,137.8955,早太郎像,山梨县,山梨県,Japan,other,,data/raw/anime_frames/207195/3dqaphf.jpg,,https://anitabi.cn/,anitabi_fan_site,high,exact,1,0,
S_207195_0080,207195,摇曳露营△,330e04a7,9,35.7347,137.8956,霊犬早太郎の墓,山梨县,山梨県,Japan,other,,data/raw/anime_frames/207195/330e04a7.jpg,,https://www.google.com/maps/d/viewer?mid=1Hlzintz-iOT_6yI-xxGkQBWD-8FftQ-5&ll=35.734702%2C137.895657&z=17,anitabi_fan_site,high,exact,1,0,
S_207195_0081,207195,摇曳露营△,42ubrj6,9,35.78,137.8116,千畳敷カール,山梨县,山梨県,Japan,other,,data/raw/anime_frames/207195/42ubrj6.jpg,,https://anitabi.cn/,anitabi_fan_site,high,exact,1,0,
S_207195_0082,207195,摇曳露营△,80b638f4,9,35.7436,137.888,早太郎温泉前,山梨县,山梨県,Japan,other,,data/raw/anime_frames/207195/80b638f4.jpg,,https://www.google.com/maps/d/viewer?mid=1Hlzintz-iOT_6yI-xxGkQBWD-8FftQ-5&ll=35.743648%2C137.888003&z=17,anitabi_fan_site,high,exact,1,0,
S_207195_0083,207195,摇曳露营△,3drb3i3,9,35.7441,137.8882,ミニソースかつ丼,山梨县,山梨県,Japan,other,,data/raw/anime_frames/207195/3drb3i3.jpg,,https://anitabi.cn/,anitabi_fan_site,high,exact,1,0,
S_207195_0084,207195,摇曳露营△,3drook8,9,35.744,137.8881,夢の中のなでしこ,山梨县,山梨県,Japan,other,,data/raw/anime_frames/207195/3drook8.jpg,,https://anitabi.cn/,anitabi_fan_site,high,exact,1,0,
S_207195_0085,207195,摇曳露营△,9afd1dd5,10,35.7186,137.9958,県道210号線,山梨县,山梨県,Japan,other,,data/raw/anime_frames/207195/9afd1dd5.jpg,,https://www.google.com/maps/d/viewer?mid=1Hlzintz-iOT_6yI-xxGkQBWD-8FftQ-5&ll=35.718642%2C137.995862&z=17,anitabi_fan_site,high,exact,1,0,
S_207195_0086,207195,摇曳露营△,1dd50bf9,10,35.671,137.9851,陣馬形山 南アルプス展望台前,山梨县,山梨県,Japan,hill_viewpoint,,data/raw/anime_frames/207195/1dd50bf9.jpg,,https://www.google.com/maps/d/viewer?mid=1Hlzintz-iOT_6yI-xxGkQBWD-8FftQ-5&ll=35.671049%2C137.985156&z=17,anitabi_fan_site,high,exact,1,0,
S_207195_0087,207195,摇曳露营△,e8569a20,9,35.4843,138.4556,峡南橋,山梨县,山梨県,Japan,bridge,,data/raw/anime_frames/207195/e8569a20.jpg,,https://www.google.com/maps/d/viewer?mid=1Hlzintz-iOT_6yI-xxGkQBWD-8FftQ-5&ll=35.484319%2C138.455613&z=17,anitabi_fan_site,high,exact,1,0,
S_207195_0088,207195,摇曳露营△,5b0b66a7,9,35.4838,138.456,峡南橋東詰,山梨县,山梨県,Japan,bridge,,data/raw/anime_frames/207195/5b0b66a7.jpg,,https://www.google.com/maps/d/viewer?mid=1Hlzintz-iOT_6yI-xxGkQBWD-8FftQ-5&ll=35.483815%2C138.456036&z=17,anitabi_fan_site,high,exact,1,0,
S_207195_0089,207195,摇曳露营△,abdd6648,6,35.4253,138.4681,国道300号,山梨县,山梨県,Japan,other,,data/raw/anime_frames/207195/abdd6648.jpg,,https://www.google.com/maps/d/viewer?mid=1Hlzintz-iOT_6yI-xxGkQBWD-8FftQ-5&ll=35.425344%2C138.468132&z=17,anitabi_fan_site,high,exact,1,0,
